{
"type": "FeatureCollection",
"name": "stations_all",
"crs": { "type": "name", "properties": { "name": "urn:ogc:def:crs:OGC:1.3:CRS84" } },
"features": [
{ "type": "Feature", "properties": { "name": "Wellingborough" }, "geometry": { "type": "Point", "coordinates": [ -0.676473087307453, 52.303868396015503 ] } },
{ "type": "Feature", "properties": { "name": "Luton Airport Parkway" }, "geometry": { "type": "Point", "coordinates": [ -0.396098487406936, 51.872954095670252 ] } },
{ "type": "Feature", "properties": { "name": "Luton" }, "geometry": { "type": "Point", "coordinates": [ -0.414072287410049, 51.882540595677817 ] } },
{ "type": "Feature", "properties": { "name": "Welwyn North" }, "geometry": { "type": "Point", "coordinates": [ -0.192207387340352, 51.823557395630907 ] } },
{ "type": "Feature", "properties": { "name": "Hatfield" }, "geometry": { "type": "Point", "coordinates": [ -0.215731287384864, 51.764387995585672 ] } },
{ "type": "Feature", "properties": { "name": "Hertford North" }, "geometry": { "type": "Point", "coordinates": [ -0.092207887309053, 51.799286695611485 ] } },
{ "type": "Feature", "properties": { "name": "Baldock" }, "geometry": { "type": "Point", "coordinates": [ -0.187623787242051, 51.992977595761865 ] } },
{ "type": "Feature", "properties": { "name": "Fenny Stratford" }, "geometry": { "type": "Point", "coordinates": [ -0.718038387492779, 51.999989695771916 ] } },
{ "type": "Feature", "properties": { "name": "Wendover" }, "geometry": { "type": "Point", "coordinates": [ -0.747690487638177, 51.761816795584352 ] } },
{ "type": "Feature", "properties": { "name": "Arlesey" }, "geometry": { "type": "Point", "coordinates": [ -0.266463987260218, 52.025821195788467 ] } },
{ "type": "Feature", "properties": { "name": "Leagrave" }, "geometry": { "type": "Point", "coordinates": [ -0.458598687418378, 51.905473695695925 ] } },
{ "type": "Feature", "properties": { "name": "Bedford St Johns" }, "geometry": { "type": "Point", "coordinates": [ -0.467650587298668, 52.129358795872484 ] } },
{ "type": "Feature", "properties": { "name": "Watton-at-Stone" }, "geometry": { "type": "Point", "coordinates": [ -0.119413587288499, 51.856469295655529 ] } },
{ "type": "Feature", "properties": { "name": "Ashwell & Morden" }, "geometry": { "type": "Point", "coordinates": [ -0.109749887184931, 52.03065679579008 ] } },
{ "type": "Feature", "properties": { "name": "Aspley Guise" }, "geometry": { "type": "Point", "coordinates": [ -0.632235287438599, 52.021258695788191 ] } },
{ "type": "Feature", "properties": { "name": "Ridgmont" }, "geometry": { "type": "Point", "coordinates": [ -0.595096187417476, 52.02644559579204 ] } },
{ "type": "Feature", "properties": { "name": "Stewartby" }, "geometry": { "type": "Point", "coordinates": [ -0.520487587357322, 52.069488095825506 ] } },
{ "type": "Feature", "properties": { "name": "Woburn Sands" }, "geometry": { "type": "Point", "coordinates": [ -0.654584887451356, 52.018127595785892 ] } },
{ "type": "Feature", "properties": { "name": "Bow Brickhill" }, "geometry": { "type": "Point", "coordinates": [ -0.696219087479572, 52.004285795775189 ] } },
{ "type": "Feature", "properties": { "name": "Kempston Hardwick" }, "geometry": { "type": "Point", "coordinates": [ -0.504175687337103, 52.091792195843034 ] } },
{ "type": "Feature", "properties": { "name": "Millbrook" }, "geometry": { "type": "Point", "coordinates": [ -0.532414087371523, 52.054248995813545 ] } },
{ "type": "Feature", "properties": { "name": "St Neots" }, "geometry": { "type": "Point", "coordinates": [ -0.247020387136194, 52.231725295950554 ] } },
{ "type": "Feature", "properties": { "name": "Lidlington" }, "geometry": { "type": "Point", "coordinates": [ -0.558806387391321, 52.041689395803822 ] } },
{ "type": "Feature", "properties": { "name": "Biggleswade" }, "geometry": { "type": "Point", "coordinates": [ -0.260818987224404, 52.085034295834845 ] } },
{ "type": "Feature", "properties": { "name": "Sandy" }, "geometry": { "type": "Point", "coordinates": [ -0.280920487211783, 52.124622095866293 ] } },
{ "type": "Feature", "properties": { "name": "Huntingdon" }, "geometry": { "type": "Point", "coordinates": [ -0.192422187056565, 52.328738896026714 ] } },
{ "type": "Feature", "properties": { "name": "Letchworth Garden City" }, "geometry": { "type": "Point", "coordinates": [ -0.228903587268274, 51.980370895752529 ] } },
{ "type": "Feature", "properties": { "name": "Welwyn Garden City" }, "geometry": { "type": "Point", "coordinates": [ -0.203842887358615, 51.800850695613526 ] } },
{ "type": "Feature", "properties": { "name": "Harpenden" }, "geometry": { "type": "Point", "coordinates": [ -0.35135198741876, 51.814708895624932 ] } },
{ "type": "Feature", "properties": { "name": "Hertford East" }, "geometry": { "type": "Point", "coordinates": [ -0.072788287300443, 51.79914349561119 ] } },
{ "type": "Feature", "properties": { "name": "Cheddington" }, "geometry": { "type": "Point", "coordinates": [ -0.661981287542855, 51.858289795659765 ] } },
{ "type": "Feature", "properties": { "name": "Berkhamsted" }, "geometry": { "type": "Point", "coordinates": [ -0.562663587547394, 51.763557095585746 ] } },
{ "type": "Feature", "properties": { "name": "Flitwick" }, "geometry": { "type": "Point", "coordinates": [ -0.49501798738118, 52.003864995773384 ] } },
{ "type": "Feature", "properties": { "name": "Harlington" }, "geometry": { "type": "Point", "coordinates": [ -0.495273587404735, 51.961582395740095 ] } },
{ "type": "Feature", "properties": { "name": "Hitchin" }, "geometry": { "type": "Point", "coordinates": [ -0.26303498729947, 51.953170895731709 ] } },
{ "type": "Feature", "properties": { "name": "Knebworth" }, "geometry": { "type": "Point", "coordinates": [ -0.187050987313213, 51.867042095664281 ] } },
{ "type": "Feature", "properties": { "name": "Bedford" }, "geometry": { "type": "Point", "coordinates": [ -0.47972908730079, 52.136182595878061 ] } },
{ "type": "Feature", "properties": { "name": "Tring" }, "geometry": { "type": "Point", "coordinates": [ -0.621873187555561, 51.80008879561418 ] } },
{ "type": "Feature", "properties": { "name": "Bletchley" }, "geometry": { "type": "Point", "coordinates": [ -0.736424234168259, 51.995317451990921 ] } },
{ "type": "Feature", "properties": { "name": "Stevenage" }, "geometry": { "type": "Point", "coordinates": [ -0.206903619066661, 51.901650528062596 ] } },
{ "type": "Feature", "properties": { "name": "Milton Keynes Central" }, "geometry": { "type": "Point", "coordinates": [ -0.7738012861585, 52.0344494649163 ] } },
{ "type": "Feature", "properties": { "name": "Leighton Buzzard" }, "geometry": { "type": "Point", "coordinates": [ -0.677033273963294, 51.916207827120715 ] } }
]
}
